[
    {
      "model": "studios.studio",
      "pk": 1,
      "fields": {
        "name": "BadLife Fitness Toronto Yonge and St Clair",
        "address": "12 St Clair Ave E, Toronto, ON",
        "latitude": 43.68877880652466,
        "longitude": -79.39373808577378,
        "postal_code": "M4T 1L7",
        "phone_number": "+14169278042"
      }
    },
    {
      "model": "studios.studio",
      "pk": 2,
      "fields": {
        "name": "BadLife Fitness Toronto Bloor and Bay",
        "address": "80 Bloor St W, Toronto, ON",
        "latitude": 43.67043597848141,
        "longitude": -79.39004736582216,
        "postal_code": "M5S 2V1",
        "phone_number": "+14169602434"
      }
    },
    {
      "model": "studios.studio",
      "pk": 3,
      "fields": {
        "name": "BadLife Fitness Toronto Bloor and Park",
        "address": "8 Park Rd, Toronto, ON",
        "latitude": 43.671801796772996,
        "longitude": -79.38451128676805,
        "postal_code": "M4W 3G8",
        "phone_number": "+14169221262"
      }
    },
    {
      "model": "studios.studio",
      "pk": 4,
      "fields": {
        "name": "GoodLife Fitness Toronto Yonge and St Clair",
        "address": "12 St Clair Ave E, Toronto, ON",
        "latitude": 43.68890293515418,
        "longitude": -79.3940384931643,
        "postal_code": "M4T 1L7",
        "phone_number": "+14169278042"
      }
    },
    {
      "model": "studios.studio",
      "pk": 5,
      "fields": {
        "name": "BadLife Fitness Toronto Manulife Centre",
        "address": "55 Bloor St W #210, Toronto, ON",
        "latitude": 43.67000139331392,
        "longitude": -79.38854532876285,
        "postal_code": "M4W 1A5",
        "phone_number": "+14169640412"
      }
    },
    {
      "model": "studios.studio",
      "pk": 6,
      "fields": {
        "name": "GoodLife Fitness Toronto Mount Pleasant and Davisville",
        "address": "250 Davisville Ave, Toronto, ON",
        "latitude": 43.70115879757394,
        "longitude": -79.3864170011153,
        "postal_code": "M4S 2L9",
        "phone_number": "+14164404242"
      }
    },
    {
      "model": "studios.studio",
      "pk": 7,
      "fields": {
        "name": "BadLife Fitness Toronto Danforth and Pape",
        "address": "635 Danforth Ave, Toronto, ON",
        "latitude": 43.679088153506484,
        "longitude": -79.34543374713981,
        "postal_code": "M4K 1R2",
        "phone_number": "+14167789046"
      }
    },
    {
      "model": "studios.studio",
      "pk": 8,
      "fields": {
        "name": "GoodLife Fitness Toronto Coxwell and Gerrard",
        "address": "280 Coxwell Ave, Toronto, ON",
        "latitude": 43.67883985537076,
        "longitude": -79.34539083179828,
        "postal_code": "M4L 3B6",
        "phone_number": "+14164668699"
      }
    },
    {
      "model": "studios.studio",
      "pk": 9,
      "fields": {
        "name": "GoodLife Fitness Toronto Dunfield and Eglinton",
        "address": "110 Eglinton Ave E, Toronto, ON",
        "latitude": 43.70806380130035,
        "longitude": -79.39513133974927,
        "postal_code": "M4P 1A6",
        "phone_number": "+14164850343"
      }
    },
    {
      "model": "studios.studio",
      "pk": 10,
      "fields": {
        "name": "BadLife Fitness Toronto Yonge Eglinton Centre",
        "address": "2300 Yonge St, Toronto, ON",
        "latitude": 43.707629488784534,
        "longitude": -79.39998077333931,
        "postal_code": "M4P 1E4",
        "phone_number": "+14164831234"
      }
    },
    {
      "model": "studios.studio",
      "pk": 11,
      "fields": {
        "name": "BadLife Fitness Toronto Bell Trinity Centre",
        "address": "483 Bay St., Toronto, ON",
        "latitude": 43.65348257568552,
        "longitude": -79.3822710857738,
        "postal_code": "M5G 2C9",
        "phone_number": "+14164084856"
      }
    },
    {
      "model": "studios.studio",
      "pk": 12,
      "fields": {
        "name": "GoodLife Fitness Toronto 137 Yonge Street",
        "address": "137 Yonge St, Toronto, ON",
        "latitude": 43.65168162287364,
        "longitude": -79.3778078902573,
        "postal_code": "M5C 1W6",
        "phone_number": "+14165990430"
      }
    }
  ]